{
  "Bukavu, Sud-Kivu, Congo (Kinshasa)": {
    "lats": [
      2.570238542077873,
      2.570238542077873
    ],
    "lons": [
      26.470972503996027,
      26.470972503996027
    ],
    "true_lat": -2.51,
    "true_lon": 28.84,
    "wiki": "https://en.wikipedia.org/wiki/Special:Search?search=Bukavu%2C+Congo (Kinshasa)&go=Go&ns0=1",
    "mean_dist": 623.2,
    "mean_lat": 2.57,
    "mean_lon": 26.47,
    "mean_time": 9.8,
    "std_dist": 0,
    "std_time": 0,
    "city": "Bukavu",
    "admin": "Sud-Kivu",
    "country": "Congo (Kinshasa)",
    "iso2": "CD",
    "regions": [
      "Piacenza",
      "Piacenza"
    ],
    "countries": [
      "Italy",
      "Italy"
    ],
    "dists": [
      623.2615585815688,
      623.2615585815688
    ],
    "times": [
      9.833333333333334,
      9.833333333333334
    ]
  },
  "Bafwasende, Tshopo, Congo (Kinshasa)": {
    "lats": [
      -0.27901136870850907,
      -1.924,
      -0.27901136870850907,
      -1.924
    ],
    "lons": [
      27.870412279906393,
      19.203,
      27.870412279906393,
      19.203
    ],
    "true_lat": 1.0838,
    "true_lon": 27.2666,
    "wiki": "https://en.wikipedia.org/wiki/Special:Search?search=Bafwasende%2C+Congo (Kinshasa)&go=Go&ns0=1",
    "mean_dist": 561.2,
    "mean_lat": -1.101,
    "mean_lon": 23.536,
    "mean_time": 6.6,
    "std_dist": 395.4,
    "std_time": 0.3,
    "city": "Bafwasende",
    "admin": "Tshopo",
    "country": "Congo (Kinshasa)",
    "iso2": "CD",
    "regions": [
      "Piacenza",
      "Zibo",
      "Piacenza",
      "Zibo"
    ],
    "countries": [
      "Italy",
      "China",
      "Italy",
      "China"
    ],
    "dists": [
      165.74419470767762,
      956.7,
      165.74419470767762,
      956.7
    ],
    "times": [
      7.033333333333344,
      6.3,
      7.033333333333344,
      6.3
    ]
  },
  "Bumba, Mongala, Congo (Kinshasa)": {
    "lats": [
      -0.06789293850256328,
      -0.06789293850256328
    ],
    "lons": [
      27.590524324724324,
      27.590524324724324
    ],
    "true_lat": 2.19,
    "true_lon": 22.46,
    "wiki": "https://en.wikipedia.org/wiki/Special:Search?search=Bumba%2C+Congo (Kinshasa)&go=Go&ns0=1",
    "mean_dist": 623.1,
    "mean_lat": -0.067,
    "mean_lon": 27.59,
    "mean_time": 9.2,
    "std_dist": 0,
    "std_time": 0,
    "city": "Bumba",
    "admin": "Mongala",
    "country": "Congo (Kinshasa)",
    "iso2": "CD",
    "regions": [
      "Piacenza",
      "Piacenza"
    ],
    "countries": [
      "Italy",
      "Italy"
    ],
    "dists": [
      623.1671514004123,
      623.1671514004123
    ],
    "times": [
      9.26666666666667,
      9.26666666666667
    ]
  },
  "Mbuji-Mayi, Kasa\u00ef Oriental, Congo (Kinshasa)": {
    "lats": [
      -3.5842116058609395,
      -3.5842116058609395
    ],
    "lons": [
      28.78004813424813,
      28.78004813424813
    ],
    "true_lat": -6.15,
    "true_lon": 23.6,
    "wiki": "https://en.wikipedia.org/wiki/Special:Search?search=Mbuji-Mayi%2C+Congo (Kinshasa)&go=Go&ns0=1",
    "mean_dist": 640.8,
    "mean_lat": -3.584,
    "mean_lon": 28.78,
    "mean_time": 3.3,
    "std_dist": 0,
    "std_time": 0,
    "city": "Mbuji-Mayi",
    "admin": "Kasa\u00ef Oriental",
    "country": "Congo (Kinshasa)",
    "iso2": "CD",
    "regions": [
      "Piacenza",
      "Piacenza"
    ],
    "countries": [
      "Italy",
      "Italy"
    ],
    "dists": [
      640.8757740719728,
      640.8757740719728
    ],
    "times": [
      3.333333333333357,
      3.333333333333357
    ]
  },
  "Lusanga, Kwango, Congo (Kinshasa)": {
    "lats": [
      -3.351307962161905,
      -4.346,
      -3.351307962161905,
      -4.346
    ],
    "lons": [
      21.946627450980394,
      21.016,
      21.946627450980394,
      21.016
    ],
    "true_lat": -5.5829,
    "true_lon": 16.5167,
    "wiki": "https://en.wikipedia.org/wiki/Special:Search?search=Lusanga%2C+Congo (Kinshasa)&go=Go&ns0=1",
    "mean_dist": 584,
    "mean_lat": -3.848,
    "mean_lon": 21.481,
    "mean_time": 7.9,
    "std_dist": 67,
    "std_time": 0.5,
    "city": "Lusanga",
    "admin": "Kwango",
    "country": "Congo (Kinshasa)",
    "iso2": "CD",
    "regions": [
      null,
      null,
      null,
      null
    ],
    "countries": [
      "Austria",
      "Germany",
      "Austria",
      "Germany"
    ],
    "dists": [
      651.0493641252281,
      517,
      651.0493641252281,
      517
    ],
    "times": [
      8.566666666666672,
      7.4,
      8.566666666666672,
      7.4
    ]
  },
  "Libenge, Sud-Ubangi, Congo (Kinshasa)": {
    "lats": [
      -5.193390247853137,
      -5.193390247853137
    ],
    "lons": [
      16.534294117647057,
      16.534294117647057
    ],
    "true_lat": 3.6604,
    "true_lon": 18.62,
    "wiki": "https://en.wikipedia.org/wiki/Special:Search?search=Libenge%2C+Congo (Kinshasa)&go=Go&ns0=1",
    "mean_dist": 1011.3,
    "mean_lat": -5.193,
    "mean_lon": 16.534,
    "mean_time": 8,
    "std_dist": 0,
    "std_time": 0,
    "city": "Libenge",
    "admin": "Sud-Ubangi",
    "country": "Congo (Kinshasa)",
    "iso2": "CD",
    "regions": [
      null,
      null
    ],
    "countries": [
      "Austria",
      "Austria"
    ],
    "dists": [
      1011.3869567490024,
      1011.3869567490024
    ],
    "times": [
      8.066666666666674,
      8.066666666666674
    ]
  },
  "Gandajika, Lomami, Congo (Kinshasa)": {
    "lats": [
      -2.2688804713580764,
      -2.428,
      -6.901,
      -2.2688804713580764,
      -2.428,
      -6.901,
      -5.870446357573288
    ],
    "lons": [
      17.538392156862745,
      25.62,
      26.746,
      17.538392156862745,
      25.62,
      26.746,
      12.371534773284314
    ],
    "true_lat": -6.7396,
    "true_lon": 23.96,
    "wiki": "https://en.wikipedia.org/wiki/Special:Search?search=Gandajika%2C+Congo (Kinshasa)&go=Go&ns0=1",
    "mean_dist": 563.2,
    "mean_lat": -3.865,
    "mean_lon": 23.301,
    "mean_time": 6.9,
    "std_dist": 231.2,
    "std_time": 0.7,
    "city": "Gandajika",
    "admin": "Lomami",
    "country": "Congo (Kinshasa)",
    "iso2": "CD",
    "regions": [
      null,
      null,
      "Minsk",
      null,
      null,
      "Minsk",
      "Marion"
    ],
    "countries": [
      "Austria",
      "Germany",
      "Belarus",
      "Austria",
      "Germany",
      "Belarus",
      "United States"
    ],
    "dists": [
      868.0941848590867,
      513.4,
      308.2,
      868.0941848590867,
      513.4,
      308.2,
      1284.3864540164984
    ],
    "times": [
      7.533333333333342,
      7.5,
      5.9,
      7.533333333333342,
      7.5,
      5.9,
      10
    ]
  },
  "Kalima, Maniema, Congo (Kinshasa)": {
    "lats": [
      -2.096591361462355,
      1.948,
      -2.096591361462355,
      1.948
    ],
    "lons": [
      21.089470588235294,
      18.768,
      21.089470588235294,
      18.768
    ],
    "true_lat": -2.5096,
    "true_lon": 26.43,
    "wiki": "https://en.wikipedia.org/wiki/Special:Search?search=Kalima%2C+Congo (Kinshasa)&go=Go&ns0=1",
    "mean_dist": 790.2,
    "mean_lat": -0.074,
    "mean_lon": 19.928,
    "mean_time": 8.8,
    "std_dist": 195.1,
    "std_time": 0.2,
    "city": "Kalima",
    "admin": "Maniema",
    "country": "Congo (Kinshasa)",
    "iso2": "CD",
    "regions": [
      null,
      "Kallinge",
      null,
      "Kallinge"
    ],
    "countries": [
      "Austria",
      "Sweden",
      "Austria",
      "Sweden"
    ],
    "dists": [
      595.1330151940732,
      985.4,
      595.1330151940732,
      985.4
    ],
    "times": [
      9.06666666666667,
      8.6,
      9.06666666666667,
      8.6
    ]
  },
  "Manono, Tanganyika, Congo (Kinshasa)": {
    "lats": [
      -1.9735160076284122,
      -1.037,
      -4.272,
      -1.9735160076284122,
      -1.037,
      -4.272,
      -2.6285813672331186
    ],
    "lons": [
      27.75080392156863,
      28.02,
      29.293,
      27.75080392156863,
      28.02,
      29.293,
      21.139024969362744
    ],
    "true_lat": -7.3,
    "true_lon": 27.45,
    "wiki": "https://en.wikipedia.org/wiki/Special:Search?search=Manono%2C+Congo (Kinshasa)&go=Go&ns0=1",
    "mean_dist": 561.9,
    "mean_lat": -2.427,
    "mean_lon": 28.354,
    "mean_time": 8.3,
    "std_dist": 126.7,
    "std_time": 0.7,
    "city": "Manono",
    "admin": "Tanganyika",
    "country": "Congo (Kinshasa)",
    "iso2": "CD",
    "regions": [
      null,
      "Zibo",
      null,
      null,
      "Zibo",
      null,
      "Marion"
    ],
    "countries": [
      "Austria",
      "China",
      "Germany",
      "Austria",
      "China",
      "Germany",
      "United States"
    ],
    "dists": [
      593.2148499276738,
      699.1,
      393.5,
      593.2148499276738,
      699.1,
      393.5,
      870.8033240841036
    ],
    "times": [
      9.366666666666669,
      8.2,
      7.5,
      9.366666666666669,
      8.2,
      7.5,
      7.666666666666675
    ]
  },
  "Goma, Nord-Kivu, Congo (Kinshasa)": {
    "lats": [
      -2.9578161317317644,
      -5.119,
      -2.9578161317317644,
      -5.119
    ],
    "lons": [
      26.379352941176474,
      22.167,
      26.379352941176474,
      22.167
    ],
    "true_lat": -1.6788,
    "true_lon": 29.2218,
    "wiki": "https://en.wikipedia.org/wiki/Special:Search?search=Goma%2C+Congo (Kinshasa)&go=Go&ns0=1",
    "mean_dist": 608.8,
    "mean_lat": -4.038,
    "mean_lon": 24.273,
    "mean_time": 8.6,
    "std_dist": 262.5,
    "std_time": 1,
    "city": "Goma",
    "admin": "Nord-Kivu",
    "country": "Congo (Kinshasa)",
    "iso2": "CD",
    "regions": [
      null,
      "Zibo",
      null,
      "Zibo"
    ],
    "countries": [
      "Austria",
      "China",
      "Austria",
      "China"
    ],
    "dists": [
      346.3472580529561,
      871.4,
      346.3472580529561,
      871.4
    ],
    "times": [
      9.600000000000001,
      7.6,
      9.600000000000001,
      7.6
    ]
  },
  "Kimpese, Kongo Central, Congo (Kinshasa)": {
    "lats": [
      -4.211494383837924,
      -4.53,
      -4.211494383837924,
      -4.53
    ],
    "lons": [
      27.62835294117647,
      16.901,
      27.62835294117647,
      16.901
    ],
    "true_lat": -5.5496,
    "true_lon": 14.4333,
    "wiki": "https://en.wikipedia.org/wiki/Special:Search?search=Kimpese%2C+Congo (Kinshasa)&go=Go&ns0=1",
    "mean_dist": 882.6,
    "mean_lat": -4.37,
    "mean_lon": 22.264,
    "mean_time": 7.2,
    "std_dist": 586.7,
    "std_time": 2.2,
    "city": "Kimpese",
    "admin": "Kongo Central",
    "country": "Congo (Kinshasa)",
    "iso2": "CD",
    "regions": [
      null,
      "Zibo",
      null,
      "Zibo"
    ],
    "countries": [
      "Austria",
      "China",
      "Austria",
      "China"
    ],
    "dists": [
      1469.3982934497274,
      295.9,
      1469.3982934497274,
      295.9
    ],
    "times": [
      9.500000000000002,
      5,
      9.500000000000002,
      5
    ]
  },
  "Mbandaka, \u00c9quateur, Congo (Kinshasa)": {
    "lats": [
      -3.0070106290937435,
      5.101,
      2.872,
      -3.0070106290937435,
      5.101,
      2.872
    ],
    "lons": [
      21.971117647058826,
      13.876,
      21.432,
      21.971117647058826,
      13.876,
      21.432
    ],
    "true_lat": 0.04,
    "true_lon": 18.26,
    "wiki": "https://en.wikipedia.org/wiki/Special:Search?search=Mbandaka%2C+Congo (Kinshasa)&go=Go&ns0=1",
    "mean_dist": 583.5,
    "mean_lat": 1.655,
    "mean_lon": 19.093,
    "mean_time": 5.7,
    "std_dist": 116.2,
    "std_time": 2.2,
    "city": "Mbandaka",
    "admin": "\u00c9quateur",
    "country": "Congo (Kinshasa)",
    "iso2": "CD",
    "regions": [
      null,
      "Cumming",
      "Harpelunde",
      null,
      "Cumming",
      "Harpelunde"
    ],
    "countries": [
      "Austria",
      "United States",
      "Denmark",
      "Austria",
      "United States",
      "Denmark"
    ],
    "dists": [
      533.7840989812224,
      744.1,
      472.8,
      533.7840989812224,
      744.1,
      472.8
    ],
    "times": [
      8.833333333333337,
      5,
      3.4,
      8.833333333333337,
      5,
      3.4
    ]
  },
  "Kikwit, Kwilu, Congo (Kinshasa)": {
    "lats": [
      -2.933218062333636,
      -9.985,
      -5.677,
      -2.933218062333636,
      -9.985,
      -5.677
    ],
    "lons": [
      21.53029411764706,
      18.293,
      18.052,
      21.53029411764706,
      18.293,
      18.052
    ],
    "true_lat": -5.03,
    "true_lon": 18.85,
    "wiki": "https://en.wikipedia.org/wiki/Special:Search?search=Kikwit%2C+Congo (Kinshasa)&go=Go&ns0=1",
    "mean_dist": 348.6,
    "mean_lat": -6.198,
    "mean_lon": 19.291,
    "mean_time": 7.9,
    "std_dist": 180.9,
    "std_time": 0.8,
    "city": "Kikwit",
    "admin": "Kwilu",
    "country": "Congo (Kinshasa)",
    "iso2": "CD",
    "regions": [
      null,
      "McConnelsville",
      "Minsk",
      null,
      "McConnelsville",
      "Minsk"
    ],
    "countries": [
      "Austria",
      "United States",
      "Belarus",
      "Austria",
      "United States",
      "Belarus"
    ],
    "dists": [
      377.81768961374644,
      554.3,
      113.9,
      377.81768961374644,
      554.3,
      113.9
    ],
    "times": [
      8.800000000000004,
      8.1,
      6.8,
      8.800000000000004,
      8.1,
      6.8
    ]
  },
  "Kaniama, Haut-Lomami, Congo (Kinshasa)": {
    "lats": [
      -2.933218062333636,
      -2.933218062333636
    ],
    "lons": [
      21.53029411764706,
      21.53029411764706
    ],
    "true_lat": -7.5696,
    "true_lon": 24.17,
    "wiki": "https://en.wikipedia.org/wiki/Special:Search?search=Kaniama%2C+Congo (Kinshasa)&go=Go&ns0=1",
    "mean_dist": 592.5,
    "mean_lat": -2.933,
    "mean_lon": 21.53,
    "mean_time": 9.6,
    "std_dist": 0,
    "std_time": 1.7,
    "city": "Kaniama",
    "admin": "Haut-Lomami",
    "country": "Congo (Kinshasa)",
    "iso2": "CD",
    "regions": [
      null,
      null
    ],
    "countries": [
      "Austria",
      "Austria"
    ],
    "dists": [
      592.5952723291826,
      592.5952723291826
    ],
    "times": [
      9.600000000000001,
      9.600000000000001
    ]
  },
  "Lodja, Sankuru, Congo (Kinshasa)": {
    "lats": [
      -1.8258136071179645,
      -3.043,
      -1.8258136071179645,
      -3.043
    ],
    "lons": [
      25.424235294117647,
      19.203,
      25.424235294117647,
      19.203
    ],
    "true_lat": -3.4896,
    "true_lon": 23.42,
    "wiki": "https://en.wikipedia.org/wiki/Special:Search?search=Lodja%2C+Congo (Kinshasa)&go=Go&ns0=1",
    "mean_dist": 380,
    "mean_lat": -2.434,
    "mean_lon": 22.313,
    "mean_time": 8.7,
    "std_dist": 90.5,
    "std_time": 0.8,
    "city": "Lodja",
    "admin": "Sankuru",
    "country": "Congo (Kinshasa)",
    "iso2": "CD",
    "regions": [
      null,
      null,
      null,
      null
    ],
    "countries": [
      "Austria",
      "Germany",
      "Austria",
      "Germany"
    ],
    "dists": [
      289.4535095418183,
      470.6,
      289.4535095418183,
      470.6
    ],
    "times": [
      9.566666666666668,
      7.9,
      9.566666666666668,
      7.9
    ]
  },
  "Isiro, Haut-U\u00e9l\u00e9, Congo (Kinshasa)": {
    "lats": [
      -9.468794957226482,
      -6.088,
      0.624,
      -9.468794957226482,
      -6.088,
      0.624
    ],
    "lons": [
      5.059543932567458,
      20.386,
      22.583,
      5.059543932567458,
      20.386,
      22.583
    ],
    "true_lat": 2.76,
    "true_lon": 27.62,
    "wiki": "https://en.wikipedia.org/wiki/Special:Search?search=Isiro%2C+Congo (Kinshasa)&go=Go&ns0=1",
    "mean_dist": 1574.4,
    "mean_lat": -4.977,
    "mean_lon": 16.009,
    "mean_time": 6.1,
    "std_dist": 938.4,
    "std_time": 1.6,
    "city": "Isiro",
    "admin": "Haut-U\u00e9l\u00e9",
    "country": "Congo (Kinshasa)",
    "iso2": "CD",
    "regions": [
      "Metro Manila",
      "Kallinge",
      "Minsk",
      "Metro Manila",
      "Kallinge",
      "Minsk"
    ],
    "countries": [
      "Philippines",
      "Sweden",
      "Belarus",
      "Philippines",
      "Sweden",
      "Belarus"
    ],
    "dists": [
      2845.374178558033,
      1270,
      608,
      2845.374178558033,
      1270,
      608
    ],
    "times": [
      8.533333333333339,
      5.2,
      4.8,
      8.533333333333339,
      5.2,
      4.8
    ]
  },
  "Mbanza-Ngungu, Kongo Central, Congo (Kinshasa)": {
    "lats": [
      1.7824139715787977,
      1.7824139715787977
    ],
    "lons": [
      10.552345053015637,
      10.552345053015637
    ],
    "true_lat": -5.2496,
    "true_lon": 14.86,
    "wiki": "https://en.wikipedia.org/wiki/Special:Search?search=Mbanza-Ngungu%2C+Congo (Kinshasa)&go=Go&ns0=1",
    "mean_dist": 916.6,
    "mean_lat": 1.782,
    "mean_lon": 10.552,
    "mean_time": 6.3,
    "std_dist": 0,
    "std_time": 0,
    "city": "Mbanza-Ngungu",
    "admin": "Kongo Central",
    "country": "Congo (Kinshasa)",
    "iso2": "CD",
    "regions": [
      "Metro Manila",
      "Metro Manila"
    ],
    "countries": [
      "Philippines",
      "Philippines"
    ],
    "dists": [
      916.6993517666098,
      916.6993517666098
    ],
    "times": [
      6.36666666666668,
      6.36666666666668
    ]
  },
  "Bosobolo, Nord-Ubangi, Congo (Kinshasa)": {
    "lats": [
      -0.3988635857748332,
      -0.3988635857748332
    ],
    "lons": [
      31.29903973088679,
      31.29903973088679
    ],
    "true_lat": 4.1904,
    "true_lon": 19.88,
    "wiki": "https://en.wikipedia.org/wiki/Special:Search?search=Bosobolo%2C+Congo (Kinshasa)&go=Go&ns0=1",
    "mean_dist": 1367.4,
    "mean_lat": -0.398,
    "mean_lon": 31.299,
    "mean_time": 7.3,
    "std_dist": 0,
    "std_time": 0,
    "city": "Bosobolo",
    "admin": "Nord-Ubangi",
    "country": "Congo (Kinshasa)",
    "iso2": "CD",
    "regions": [
      "Metro Manila",
      "Metro Manila"
    ],
    "countries": [
      "Philippines",
      "Philippines"
    ],
    "dists": [
      1367.483841663666,
      1367.483841663666
    ],
    "times": [
      7.366666666666676,
      7.366666666666676
    ]
  },
  "Kasaji, Lualaba, Congo (Kinshasa)": {
    "lats": [
      2.555,
      2.555
    ],
    "lons": [
      25.491,
      25.491
    ],
    "true_lat": -10.3662,
    "true_lon": 23.45,
    "wiki": "https://en.wikipedia.org/wiki/Special:Search?search=Kasaji%2C+Congo (Kinshasa)&go=Go&ns0=1",
    "mean_dist": 1454.5,
    "mean_lat": 2.555,
    "mean_lon": 25.491,
    "mean_time": 9.4,
    "std_dist": 0,
    "std_time": 0,
    "city": "Kasaji",
    "admin": "Lualaba",
    "country": "Congo (Kinshasa)",
    "iso2": "CD",
    "regions": [
      "Harpelunde",
      "Harpelunde"
    ],
    "countries": [
      "Denmark",
      "Denmark"
    ],
    "dists": [
      1454.5,
      1454.5
    ],
    "times": [
      9.4,
      9.4
    ]
  },
  "Lubao, Lomami, Congo (Kinshasa)": {
    "lats": [
      5.749114108210046,
      5.749114108210046
    ],
    "lons": [
      22.727471103435807,
      22.727471103435807
    ],
    "true_lat": -5.3896,
    "true_lon": 25.75,
    "wiki": "https://en.wikipedia.org/wiki/Special:Search?search=Lubao%2C+Congo (Kinshasa)&go=Go&ns0=1",
    "mean_dist": 1283.2,
    "mean_lat": 5.749,
    "mean_lon": 22.727,
    "mean_time": 9.5,
    "std_dist": 0,
    "std_time": 1.7,
    "city": "Lubao",
    "admin": "Lomami",
    "country": "Congo (Kinshasa)",
    "iso2": "CD",
    "regions": [
      "Metro Manila",
      "Metro Manila"
    ],
    "countries": [
      "Philippines",
      "Philippines"
    ],
    "dists": [
      1283.2190824955658,
      1283.2190824955658
    ],
    "times": [
      9.500000000000002,
      9.500000000000002
    ]
  },
  "Likasi, Haut-Katanga, Congo (Kinshasa)": {
    "lats": [
      -3.644,
      -3.644
    ],
    "lons": [
      22.595,
      22.595
    ],
    "true_lat": -10.97,
    "true_lon": 26.78,
    "wiki": "https://en.wikipedia.org/wiki/Special:Search?search=Likasi%2C+Congo (Kinshasa)&go=Go&ns0=1",
    "mean_dist": 936,
    "mean_lat": -3.644,
    "mean_lon": 22.595,
    "mean_time": 8.9,
    "std_dist": 0,
    "std_time": 0,
    "city": "Likasi",
    "admin": "Haut-Katanga",
    "country": "Congo (Kinshasa)",
    "iso2": "CD",
    "regions": [
      "McConnelsville",
      "McConnelsville"
    ],
    "countries": [
      "United States",
      "United States"
    ],
    "dists": [
      936,
      936
    ],
    "times": [
      8.9,
      8.9
    ]
  },
  "Kipushi, Haut-Katanga, Congo (Kinshasa)": {
    "lats": [
      1.252603802401853,
      1.769,
      1.252603802401853,
      1.769
    ],
    "lons": [
      20.28129411764706,
      19.203,
      20.28129411764706,
      19.203
    ],
    "true_lat": -11.7596,
    "true_lon": 27.25,
    "wiki": "https://en.wikipedia.org/wiki/Special:Search?search=Kipushi%2C+Congo (Kinshasa)&go=Go&ns0=1",
    "mean_dist": 1693.2,
    "mean_lat": 1.51,
    "mean_lon": 19.742,
    "mean_time": 8.5,
    "std_dist": 54.2,
    "std_time": 0,
    "city": "Kipushi",
    "admin": "Haut-Katanga",
    "country": "Congo (Kinshasa)",
    "iso2": "CD",
    "regions": [
      "Zibo",
      "Zibo",
      "Zibo",
      "Zibo"
    ],
    "countries": [
      "China",
      "China",
      "China",
      "China"
    ],
    "dists": [
      1638.9852801470481,
      1747.5,
      1638.9852801470481,
      1747.5
    ],
    "times": [
      8.533333333333339,
      8.6,
      8.533333333333339,
      8.6
    ]
  },
  "Kolwezi, Lualaba, Congo (Kinshasa)": {
    "lats": [
      -5.610250139585724,
      -5.610250139585724
    ],
    "lons": [
      14.379156862745097,
      14.379156862745097
    ],
    "true_lat": -10.7167,
    "true_lon": 25.4724,
    "wiki": "https://en.wikipedia.org/wiki/Special:Search?search=Kolwezi%2C+Congo (Kinshasa)&go=Go&ns0=1",
    "mean_dist": 1346.1,
    "mean_lat": -5.61,
    "mean_lon": 14.379,
    "mean_time": 7.4,
    "std_dist": 0,
    "std_time": 0,
    "city": "Kolwezi",
    "admin": "Lualaba",
    "country": "Congo (Kinshasa)",
    "iso2": "CD",
    "regions": [
      "Zibo",
      "Zibo"
    ],
    "countries": [
      "China",
      "China"
    ],
    "dists": [
      1346.1574218811395,
      1346.1574218811395
    ],
    "times": [
      7.466666666666676,
      7.466666666666676
    ]
  },
  "Mangai, Kwilu, Congo (Kinshasa)": {
    "lats": [
      -4.678067214151572,
      0.119,
      -4.678067214151572,
      0.119
    ],
    "lons": [
      23.465019607843136,
      21.848,
      23.465019607843136,
      21.848
    ],
    "true_lat": -4.0396,
    "true_lon": 19.53,
    "wiki": "https://en.wikipedia.org/wiki/Special:Search?search=Mangai%2C+Congo (Kinshasa)&go=Go&ns0=1",
    "mean_dist": 485.7,
    "mean_lat": -2.279,
    "mean_lon": 22.656,
    "mean_time": 7.9,
    "std_dist": 43.6,
    "std_time": 0.5,
    "city": "Mangai",
    "admin": "Kwilu",
    "country": "Congo (Kinshasa)",
    "iso2": "CD",
    "regions": [
      "Zibo",
      "Zibo",
      "Zibo",
      "Zibo"
    ],
    "countries": [
      "China",
      "China",
      "China",
      "China"
    ],
    "dists": [
      442.02436066470034,
      529.4,
      442.02436066470034,
      529.4
    ],
    "times": [
      8.433333333333339,
      7.4,
      8.433333333333339,
      7.4
    ]
  },
  "Gbadolite, Nord-Ubangi, Congo (Kinshasa)": {
    "lats": [
      1.9912209517087915,
      1.9912209517087915
    ],
    "lons": [
      25.669137254901962,
      25.669137254901962
    ],
    "true_lat": 4.2904,
    "true_lon": 21.0199,
    "wiki": "https://en.wikipedia.org/wiki/Special:Search?search=Gbadolite%2C+Congo (Kinshasa)&go=Go&ns0=1",
    "mean_dist": 576,
    "mean_lat": 1.991,
    "mean_lon": 25.669,
    "mean_time": 8,
    "std_dist": 0,
    "std_time": 7.1,
    "city": "Gbadolite",
    "admin": "Nord-Ubangi",
    "country": "Congo (Kinshasa)",
    "iso2": "CD",
    "regions": [
      "Zibo",
      "Zibo"
    ],
    "countries": [
      "China",
      "China"
    ],
    "dists": [
      576.0046293619039,
      576.0046293619039
    ],
    "times": [
      8.000000000000007,
      8.000000000000007
    ]
  },
  "Bukama, Haut-Lomami, Congo (Kinshasa)": {
    "lats": [
      2.1389085946962565,
      0.76,
      2.1389085946962565,
      0.76
    ],
    "lons": [
      17.195529411764706,
      20.722,
      17.195529411764706,
      20.722
    ],
    "true_lat": -9.2096,
    "true_lon": 25.84,
    "wiki": "https://en.wikipedia.org/wiki/Special:Search?search=Bukama%2C+Congo (Kinshasa)&go=Go&ns0=1",
    "mean_dist": 1414.6,
    "mean_lat": 1.449,
    "mean_lon": 18.958,
    "mean_time": 7.6,
    "std_dist": 169.6,
    "std_time": 0,
    "city": "Bukama",
    "admin": "Haut-Lomami",
    "country": "Congo (Kinshasa)",
    "iso2": "CD",
    "regions": [
      "Zibo",
      "Zibo",
      "Zibo",
      "Zibo"
    ],
    "countries": [
      "China",
      "China",
      "China",
      "China"
    ],
    "dists": [
      1584.2229976247106,
      1245,
      1584.2229976247106,
      1245
    ],
    "times": [
      7.700000000000008,
      7.6,
      7.700000000000008,
      7.6
    ]
  },
  "Ikela, Tshuapa, Congo (Kinshasa)": {
    "lats": [
      -1.481129162313108,
      -4.432,
      -1.481129162313108,
      -4.432
    ],
    "lons": [
      15.750607843137253,
      15.677,
      15.750607843137253,
      15.677
    ],
    "true_lat": -1.1829,
    "true_lon": 23.2666,
    "wiki": "https://en.wikipedia.org/wiki/Special:Search?search=Ikela%2C+Congo (Kinshasa)&go=Go&ns0=1",
    "mean_dist": 876.5,
    "mean_lat": -2.956,
    "mean_lon": 15.713,
    "mean_time": 3.7,
    "std_dist": 40.3,
    "std_time": 0.6,
    "city": "Ikela",
    "admin": "Tshuapa",
    "country": "Congo (Kinshasa)",
    "iso2": "CD",
    "regions": [
      "Zibo",
      "Zibo",
      "Zibo",
      "Zibo"
    ],
    "countries": [
      "China",
      "China",
      "China",
      "China"
    ],
    "dists": [
      836.1709241075082,
      916.9,
      836.1709241075082,
      916.9
    ],
    "times": [
      4.433333333333353,
      3.1,
      4.433333333333353,
      3.1
    ]
  },
  "Binga, Mongala, Congo (Kinshasa)": {
    "lats": [
      -1.776576727716152,
      -2.668,
      -3.917,
      -3.836,
      -1.776576727716152,
      -2.668,
      -3.917,
      -3.836,
      4.435045666642232
    ],
    "lons": [
      25.571176470588238,
      23.929,
      15.721,
      22.828,
      25.571176470588238,
      23.929,
      15.721,
      22.828,
      29.588142616421568
    ],
    "true_lat": 2.3834,
    "true_lon": 20.42,
    "wiki": "https://en.wikipedia.org/wiki/Special:Search?search=Binga%2C+Congo (Kinshasa)&go=Go&ns0=1",
    "mean_dist": 758.8,
    "mean_lat": -3.049,
    "mean_lon": 22.012,
    "mean_time": 8.1,
    "std_dist": 70,
    "std_time": 0.8,
    "city": "Binga",
    "admin": "Mongala",
    "country": "Congo (Kinshasa)",
    "iso2": "CD",
    "regions": [
      "Zibo",
      "Kallinge",
      "McConnelsville",
      "Minsk",
      "Zibo",
      "Kallinge",
      "McConnelsville",
      "Minsk",
      "Marion"
    ],
    "countries": [
      "China",
      "Sweden",
      "United States",
      "Belarus",
      "China",
      "Sweden",
      "United States",
      "Belarus",
      "United States"
    ],
    "dists": [
      736.1374656832489,
      683.8,
      873.7,
      741.6,
      736.1374656832489,
      683.8,
      873.7,
      741.6,
      1042.846945290302
    ],
    "times": [
      7.400000000000009,
      8.8,
      9.2,
      7.1,
      7.400000000000009,
      8.8,
      9.2,
      7.1,
      9.766666666666667
    ]
  },
  "Basankusu, \u00c9quateur, Congo (Kinshasa)": {
    "lats": [
      -9.054231644273944,
      -0.36,
      -9.054231644273944,
      -0.36,
      4.852390613503364
    ],
    "lons": [
      27.334470588235295,
      25.552,
      27.334470588235295,
      25.552,
      19.30226026348039
    ],
    "true_lat": 1.2337,
    "true_lon": 19.8,
    "wiki": "https://en.wikipedia.org/wiki/Special:Search?search=Basankusu%2C+Congo (Kinshasa)&go=Go&ns0=1",
    "mean_dist": 1039.9,
    "mean_lat": -4.707,
    "mean_lon": 26.443,
    "mean_time": 6.6,
    "std_dist": 376.2,
    "std_time": 1.4,
    "city": "Basankusu",
    "admin": "\u00c9quateur",
    "country": "Congo (Kinshasa)",
    "iso2": "CD",
    "regions": [
      "Zibo",
      "Minsk",
      "Zibo",
      "Minsk",
      "Marion"
    ],
    "countries": [
      "China",
      "Belarus",
      "China",
      "Belarus",
      "United States"
    ],
    "dists": [
      1416.1158895709348,
      663.7,
      1416.1158895709348,
      663.7,
      406.15665979301684
    ],
    "times": [
      8.100000000000007,
      5.2,
      8.100000000000007,
      5.2,
      9.766666666666667
    ]
  },
  "Businga, Nord-Ubangi, Congo (Kinshasa)": {
    "lats": [
      2.4834561153935977,
      2.249,
      2.4834561153935977,
      2.249
    ],
    "lons": [
      20.918039215686274,
      24.126,
      20.918039215686274,
      24.126
    ],
    "true_lat": 3.3404,
    "true_lon": 20.87,
    "wiki": "https://en.wikipedia.org/wiki/Special:Search?search=Businga%2C+Congo (Kinshasa)&go=Go&ns0=1",
    "mean_dist": 238.4,
    "mean_lat": 2.366,
    "mean_lon": 22.522,
    "mean_time": 8.1,
    "std_dist": 142.9,
    "std_time": 0,
    "city": "Businga",
    "admin": "Nord-Ubangi",
    "country": "Congo (Kinshasa)",
    "iso2": "CD",
    "regions": [
      "Zibo",
      null,
      "Zibo",
      null
    ],
    "countries": [
      "China",
      "Germany",
      "China",
      "Germany"
    ],
    "dists": [
      95.43703137555256,
      381.4,
      95.43703137555256,
      381.4
    ],
    "times": [
      8.100000000000007,
      8.2,
      8.100000000000007,
      8.2
    ]
  },
  "Wamba, Haut-U\u00e9l\u00e9, Congo (Kinshasa)": {
    "lats": [
      2.581882306637573,
      2.581882306637573
    ],
    "lons": [
      20.33027450980392,
      20.33027450980392
    ],
    "true_lat": 2.1404,
    "true_lon": 27.99,
    "wiki": "https://en.wikipedia.org/wiki/Special:Search?search=Wamba%2C+Congo (Kinshasa)&go=Go&ns0=1",
    "mean_dist": 852.4,
    "mean_lat": 2.581,
    "mean_lon": 20.33,
    "mean_time": 5.7,
    "std_dist": 0,
    "std_time": 1.5,
    "city": "Wamba",
    "admin": "Haut-U\u00e9l\u00e9",
    "country": "Congo (Kinshasa)",
    "iso2": "CD",
    "regions": [
      "Zibo",
      "Zibo"
    ],
    "countries": [
      "China",
      "China"
    ],
    "dists": [
      852.41105277215,
      852.41105277215
    ],
    "times": [
      5.700000000000015,
      5.700000000000015
    ]
  },
  "Bunia, Ituri, Congo (Kinshasa)": {
    "lats": [
      2.2619708122089603,
      2.2619708122089603
    ],
    "lons": [
      21.089470588235294,
      21.089470588235294
    ],
    "true_lat": 1.5604,
    "true_lon": 30.24,
    "wiki": "https://en.wikipedia.org/wiki/Special:Search?search=Bunia%2C+Congo (Kinshasa)&go=Go&ns0=1",
    "mean_dist": 1019.9,
    "mean_lat": 2.261,
    "mean_lon": 21.089,
    "mean_time": 7.9,
    "std_dist": 0,
    "std_time": 0,
    "city": "Bunia",
    "admin": "Ituri",
    "country": "Congo (Kinshasa)",
    "iso2": "CD",
    "regions": [
      "Zibo",
      "Zibo"
    ],
    "countries": [
      "China",
      "China"
    ],
    "dists": [
      1019.9067106176363,
      1019.9067106176363
    ],
    "times": [
      7.966666666666674,
      7.966666666666674
    ]
  },
  "Lubutu, Maniema, Congo (Kinshasa)": {
    "lats": [
      0.4891487325592914,
      -1.518,
      0.4891487325592914,
      -1.518
    ],
    "lons": [
      17.6608431372549,
      18.028,
      17.6608431372549,
      18.028
    ],
    "true_lat": -0.7329,
    "true_lon": 26.5833,
    "wiki": "https://en.wikipedia.org/wiki/Special:Search?search=Lubutu%2C+Congo (Kinshasa)&go=Go&ns0=1",
    "mean_dist": 978.1,
    "mean_lat": -0.514,
    "mean_lon": 17.844,
    "mean_time": 7.8,
    "std_dist": 23.1,
    "std_time": 0.3,
    "city": "Lubutu",
    "admin": "Maniema",
    "country": "Congo (Kinshasa)",
    "iso2": "CD",
    "regions": [
      "Zibo",
      null,
      "Zibo",
      null
    ],
    "countries": [
      "China",
      "Germany",
      "China",
      "Germany"
    ],
    "dists": [
      1001.3735000506219,
      955,
      1001.3735000506219,
      955
    ],
    "times": [
      8.266666666666673,
      7.5,
      8.266666666666673,
      7.5
    ]
  },
  "Demba, Kasa\u00ef Central, Congo (Kinshasa)": {
    "lats": [
      1.9666050311812848,
      -4.297,
      1.9666050311812848,
      -4.297
    ],
    "lons": [
      20.403745098039217,
      23.293,
      20.403745098039217,
      23.293
    ],
    "true_lat": -5.5096,
    "true_lon": 22.26,
    "wiki": "https://en.wikipedia.org/wiki/Special:Search?search=Demba%2C+Congo (Kinshasa)&go=Go&ns0=1",
    "mean_dist": 516.6,
    "mean_lat": -1.165,
    "mean_lon": 21.848,
    "mean_time": 8.7,
    "std_dist": 339.8,
    "std_time": 0.3,
    "city": "Demba",
    "admin": "Kasa\u00ef Central",
    "country": "Congo (Kinshasa)",
    "iso2": "CD",
    "regions": [
      "Zibo",
      null,
      "Zibo",
      null
    ],
    "countries": [
      "China",
      "Germany",
      "China",
      "Germany"
    ],
    "dists": [
      856.4978683544219,
      176.8,
      856.4978683544219,
      176.8
    ],
    "times": [
      9.100000000000003,
      8.4,
      9.100000000000003,
      8.4
    ]
  },
  "Uvira, Sud-Kivu, Congo (Kinshasa)": {
    "lats": [
      -0.1512410181813675,
      -5.213,
      -0.1512410181813675,
      -5.213
    ],
    "lons": [
      25.693627450980394,
      21.655,
      25.693627450980394,
      21.655
    ],
    "true_lat": -3.37,
    "true_lon": 29.14,
    "wiki": "https://en.wikipedia.org/wiki/Special:Search?search=Uvira%2C+Congo (Kinshasa)&go=Go&ns0=1",
    "mean_dist": 689.4,
    "mean_lat": -2.682,
    "mean_lon": 23.674,
    "mean_time": 7.1,
    "std_dist": 165.3,
    "std_time": 0.6,
    "city": "Uvira",
    "admin": "Sud-Kivu",
    "country": "Congo (Kinshasa)",
    "iso2": "CD",
    "regions": [
      "Zibo",
      "Kallinge",
      "Zibo",
      "Kallinge"
    ],
    "countries": [
      "China",
      "Sweden",
      "China",
      "Sweden"
    ],
    "dists": [
      524.1935469995449,
      854.8,
      524.1935469995449,
      854.8
    ],
    "times": [
      6.433333333333346,
      7.8,
      6.433333333333346,
      7.8
    ]
  },
  "Tshikapa, Kasa\u00ef, Congo (Kinshasa)": {
    "lats": [
      -9.813,
      -9.813
    ],
    "lons": [
      16.067,
      16.067
    ],
    "true_lat": -6.41,
    "true_lon": 20.77,
    "wiki": "https://en.wikipedia.org/wiki/Special:Search?search=Tshikapa%2C+Congo (Kinshasa)&go=Go&ns0=1",
    "mean_dist": 641.1,
    "mean_lat": -9.813,
    "mean_lon": 16.067,
    "mean_time": 9.3,
    "std_dist": 0,
    "std_time": 0,
    "city": "Tshikapa",
    "admin": "Kasa\u00ef",
    "country": "Congo (Kinshasa)",
    "iso2": "CD",
    "regions": [
      "McConnelsville",
      "McConnelsville"
    ],
    "countries": [
      "United States",
      "United States"
    ],
    "dists": [
      641.1,
      641.1
    ],
    "times": [
      9.3,
      9.3
    ]
  },
  "Gemena, Sud-Ubangi, Congo (Kinshasa)": {
    "lats": [],
    "lons": [],
    "true_lat": 3.26,
    "true_lon": 19.77,
    "wiki": "https://en.wikipedia.org/wiki/Special:Search?search=Gemena%2C+Congo (Kinshasa)&go=Go&ns0=1",
    "regions": [],
    "countries": [],
    "dists": [],
    "times": []
  },
  "Lisala, Mongala, Congo (Kinshasa)": {
    "lats": [
      -1.2038389325005887,
      -1.2038389325005887
    ],
    "lons": [
      14.932307363958413,
      14.932307363958413
    ],
    "true_lat": 2.14,
    "true_lon": 21.51,
    "wiki": "https://en.wikipedia.org/wiki/Special:Search?search=Lisala%2C+Congo (Kinshasa)&go=Go&ns0=1",
    "mean_dist": 820.3,
    "mean_lat": -1.203,
    "mean_lon": 14.932,
    "mean_time": 4.3,
    "std_dist": 0,
    "std_time": 0,
    "city": "Lisala",
    "admin": "Mongala",
    "country": "Congo (Kinshasa)",
    "iso2": "CD",
    "regions": [
      "Denver",
      "Denver"
    ],
    "countries": [
      "United States",
      "United States"
    ],
    "dists": [
      820.3753633007894,
      820.3753633007894
    ],
    "times": [
      4.3333333333333535,
      4.3333333333333535
    ]
  },
  "Kasongo-Lunda, Kwango, Congo (Kinshasa)": {
    "lats": [
      -1.6696756665507428,
      -1.6696756665507428
    ],
    "lons": [
      15.660394274398264,
      15.660394274398264
    ],
    "true_lat": -6.4796,
    "true_lon": 16.83,
    "wiki": "https://en.wikipedia.org/wiki/Special:Search?search=Kasongo-Lunda%2C+Congo (Kinshasa)&go=Go&ns0=1",
    "mean_dist": 550.3,
    "mean_lat": -1.669,
    "mean_lon": 15.66,
    "mean_time": 7.8,
    "std_dist": 0,
    "std_time": 0,
    "city": "Kasongo-Lunda",
    "admin": "Kwango",
    "country": "Congo (Kinshasa)",
    "iso2": "CD",
    "regions": [
      "Denver",
      "Denver"
    ],
    "countries": [
      "United States",
      "United States"
    ],
    "dists": [
      550.3377296461805,
      550.3377296461805
    ],
    "times": [
      7.866666666666674,
      7.866666666666674
    ]
  },
  "Bulungu, Kwilu, Congo (Kinshasa)": {
    "lats": [
      -1.1610167543206351,
      -1.1610167543206351
    ],
    "lons": [
      20.532318627450984,
      20.532318627450984
    ],
    "true_lat": -4.5496,
    "true_lon": 18.6,
    "wiki": "https://en.wikipedia.org/wiki/Special:Search?search=Bulungu%2C+Congo (Kinshasa)&go=Go&ns0=1",
    "mean_dist": 433.6,
    "mean_lat": -1.161,
    "mean_lon": 20.532,
    "mean_time": 8,
    "std_dist": 0,
    "std_time": 0,
    "city": "Bulungu",
    "admin": "Kwilu",
    "country": "Congo (Kinshasa)",
    "iso2": "CD",
    "regions": [
      null,
      null
    ],
    "countries": [
      "Australia",
      "Australia"
    ],
    "dists": [
      433.6030687393695,
      433.6030687393695
    ],
    "times": [
      8.066666666666674,
      8.066666666666674
    ]
  },
  "Yangambi, Tshopo, Congo (Kinshasa)": {
    "lats": [
      -2.1581254446973266,
      -3.652,
      3.206,
      -2.1581254446973266,
      -3.652,
      3.206
    ],
    "lons": [
      24.469117647058823,
      23.318,
      24.336,
      24.469117647058823,
      23.318,
      24.336
    ],
    "true_lat": 0.7704,
    "true_lon": 24.43,
    "wiki": "https://en.wikipedia.org/wiki/Special:Search?search=Yangambi%2C+Congo (Kinshasa)&go=Go&ns0=1",
    "mean_dist": 367.8,
    "mean_lat": -0.868,
    "mean_lon": 24.041,
    "mean_time": 7.1,
    "std_dist": 100.8,
    "std_time": 0.8,
    "city": "Yangambi",
    "admin": "Tshopo",
    "country": "Congo (Kinshasa)",
    "iso2": "CD",
    "regions": [
      null,
      "Minsk",
      "Cumming",
      null,
      "Minsk",
      "Cumming"
    ],
    "countries": [
      "Germany",
      "Belarus",
      "United States",
      "Germany",
      "Belarus",
      "United States"
    ],
    "dists": [
      325.66621047190347,
      507,
      271,
      325.66621047190347,
      507,
      271
    ],
    "times": [
      8.200000000000006,
      7.2,
      6.1,
      8.200000000000006,
      7.2,
      6.1
    ]
  },
  "Mushie, Mai-Ndombe, Congo (Kinshasa)": {
    "lats": [
      -3.5357039315653767,
      -3.5357039315653767
    ],
    "lons": [
      16.68123529411765,
      16.68123529411765
    ],
    "true_lat": -3.0196,
    "true_lon": 16.92,
    "wiki": "https://en.wikipedia.org/wiki/Special:Search?search=Mushie%2C+Congo (Kinshasa)&go=Go&ns0=1",
    "mean_dist": 63.2,
    "mean_lat": -3.535,
    "mean_lon": 16.681,
    "mean_time": 7.8,
    "std_dist": 0,
    "std_time": 7.9,
    "city": "Mushie",
    "admin": "Mai-Ndombe",
    "country": "Congo (Kinshasa)",
    "iso2": "CD",
    "regions": [
      null,
      null
    ],
    "countries": [
      "Germany",
      "Germany"
    ],
    "dists": [
      63.21361725043903,
      63.21361725043903
    ],
    "times": [
      7.800000000000008,
      7.800000000000008
    ]
  },
  "Kinshasa, Kinshasa, Congo (Kinshasa)": {
    "lats": [
      -4.739435907566612,
      -12.092,
      -4.739435907566612,
      -12.092
    ],
    "lons": [
      13.717921568627451,
      28.154,
      13.717921568627451,
      28.154
    ],
    "true_lat": -4.3297,
    "true_lon": 15.315,
    "wiki": "https://en.wikipedia.org/wiki/Special:Search?search=Kinshasa%2C+Congo (Kinshasa)&go=Go&ns0=1",
    "mean_dist": 918.7,
    "mean_lat": -8.415,
    "mean_lon": 20.935,
    "mean_time": 6.9,
    "std_dist": 736,
    "std_time": 1.4,
    "city": "Kinshasa",
    "admin": "Kinshasa",
    "country": "Congo (Kinshasa)",
    "iso2": "CD",
    "regions": [
      null,
      "Minsk",
      null,
      "Minsk"
    ],
    "countries": [
      "Germany",
      "Belarus",
      "Germany",
      "Belarus"
    ],
    "dists": [
      182.79945157571572,
      1654.8,
      182.79945157571572,
      1654.8
    ],
    "times": [
      8.400000000000006,
      5.5,
      8.400000000000006,
      5.5
    ]
  },
  "Bongandanga, Mongala, Congo (Kinshasa)": {
    "lats": [
      -1.0501996600096666,
      -1.0501996600096666
    ],
    "lons": [
      20.305784313725493,
      20.305784313725493
    ],
    "true_lat": 1.5104,
    "true_lon": 21.05,
    "wiki": "https://en.wikipedia.org/wiki/Special:Search?search=Bongandanga%2C+Congo (Kinshasa)&go=Go&ns0=1",
    "mean_dist": 296.5,
    "mean_lat": -1.05,
    "mean_lon": 20.305,
    "mean_time": 8.3,
    "std_dist": 0,
    "std_time": 5.3,
    "city": "Bongandanga",
    "admin": "Mongala",
    "country": "Congo (Kinshasa)",
    "iso2": "CD",
    "regions": [
      null,
      null
    ],
    "countries": [
      "Germany",
      "Germany"
    ],
    "dists": [
      296.50553020978276,
      296.50553020978276
    ],
    "times": [
      8.300000000000006,
      8.300000000000006
    ]
  },
  "Kamina, Haut-Lomami, Congo (Kinshasa)": {
    "lats": [
      -8.463919983610502,
      -8.463919983610502
    ],
    "lons": [
      17.551466040795994,
      17.551466040795994
    ],
    "true_lat": -8.73,
    "true_lon": 25.01,
    "wiki": "https://en.wikipedia.org/wiki/Special:Search?search=Kamina%2C+Congo (Kinshasa)&go=Go&ns0=1",
    "mean_dist": 820.5,
    "mean_lat": -8.463,
    "mean_lon": 17.551,
    "mean_time": 8.4,
    "std_dist": 0,
    "std_time": 0,
    "city": "Kamina",
    "admin": "Haut-Lomami",
    "country": "Congo (Kinshasa)",
    "iso2": "CD",
    "regions": [
      "McConnelsville",
      "McConnelsville"
    ],
    "countries": [
      "United States",
      "United States"
    ],
    "dists": [
      820.5526399197897,
      820.5526399197897
    ],
    "times": [
      8.466666666666672,
      8.466666666666672
    ]
  },
  "Kasangulu, Kongo Central, Congo (Kinshasa)": {
    "lats": [
      -7.257311715330297,
      -7.257311715330297,
      -5.257585260854695
    ],
    "lons": [
      15.12844624901328,
      15.12844624901328,
      22.48598575367647
    ],
    "true_lat": -4.5796,
    "true_lon": 15.18,
    "wiki": "https://en.wikipedia.org/wiki/Special:Search?search=Kasangulu%2C+Congo (Kinshasa)&go=Go&ns0=1",
    "mean_dist": 297.8,
    "mean_lat": -7.257,
    "mean_lon": 15.128,
    "mean_time": 8.3,
    "std_dist": 0,
    "std_time": 0,
    "city": "Kasangulu",
    "admin": "Kongo Central",
    "country": "Congo (Kinshasa)",
    "iso2": "CD",
    "regions": [
      "McConnelsville",
      "McConnelsville",
      "Marion"
    ],
    "countries": [
      "United States",
      "United States",
      "United States"
    ],
    "dists": [
      297.8025395827157,
      297.8025395827157,
      812.8914437373118
    ],
    "times": [
      8.33333333333334,
      8.33333333333334,
      10
    ]
  },
  "Nyunzu, Tanganyika, Congo (Kinshasa)": {
    "lats": [
      -1.7578908904817214,
      -1.7578908904817214
    ],
    "lons": [
      12.45817851130111,
      12.45817851130111
    ],
    "true_lat": -5.9496,
    "true_lon": 28.0167,
    "wiki": "https://en.wikipedia.org/wiki/Special:Search?search=Nyunzu%2C+Congo (Kinshasa)&go=Go&ns0=1",
    "mean_dist": 1787.5,
    "mean_lat": -1.757,
    "mean_lon": 12.458,
    "mean_time": 9.2,
    "std_dist": 0,
    "std_time": 0,
    "city": "Nyunzu",
    "admin": "Tanganyika",
    "country": "Congo (Kinshasa)",
    "iso2": "CD",
    "regions": [
      "McConnelsville",
      "McConnelsville"
    ],
    "countries": [
      "United States",
      "United States"
    ],
    "dists": [
      1787.5383507163372,
      1787.5383507163372
    ],
    "times": [
      9.26666666666667,
      9.26666666666667
    ]
  },
  "Inongo, Mai-Ndombe, Congo (Kinshasa)": {
    "lats": [
      -3.694581189842152,
      -3.694581189842152
    ],
    "lons": [
      15.12844624901328,
      15.12844624901328
    ],
    "true_lat": -1.94,
    "true_lon": 18.28,
    "wiki": "https://en.wikipedia.org/wiki/Special:Search?search=Inongo%2C+Congo (Kinshasa)&go=Go&ns0=1",
    "mean_dist": 400.7,
    "mean_lat": -3.694,
    "mean_lon": 15.128,
    "mean_time": 9.3,
    "std_dist": 0,
    "std_time": 0,
    "city": "Inongo",
    "admin": "Mai-Ndombe",
    "country": "Congo (Kinshasa)",
    "iso2": "CD",
    "regions": [
      "McConnelsville",
      "McConnelsville"
    ],
    "countries": [
      "United States",
      "United States"
    ],
    "dists": [
      400.70408017556787,
      400.70408017556787
    ],
    "times": [
      9.366666666666669,
      9.366666666666669
    ]
  },
  "Kananga, Kasa\u00ef Central, Congo (Kinshasa)": {
    "lats": [
      -3.198308017015488,
      -3.198308017015488,
      -13.200824341776661
    ],
    "lons": [
      15.474592580637191,
      15.474592580637191,
      29.759573988970587
    ],
    "true_lat": -5.89,
    "true_lon": 22.4,
    "wiki": "https://en.wikipedia.org/wiki/Special:Search?search=Kananga%2C+Congo (Kinshasa)&go=Go&ns0=1",
    "mean_dist": 823.8,
    "mean_lat": -3.198,
    "mean_lon": 15.474,
    "mean_time": 9.3,
    "std_dist": 0,
    "std_time": 0,
    "city": "Kananga",
    "admin": "Kasa\u00ef Central",
    "country": "Congo (Kinshasa)",
    "iso2": "CD",
    "regions": [
      "McConnelsville",
      "McConnelsville",
      "Marion"
    ],
    "countries": [
      "United States",
      "United States",
      "United States"
    ],
    "dists": [
      823.8645391428574,
      823.8645391428574,
      1145.0510498649708
    ],
    "times": [
      9.333333333333336,
      9.333333333333336,
      9.866666666666667
    ]
  },
  "Kenge, Kwango, Congo (Kinshasa)": {
    "lats": [
      -9.035988400229762,
      -9.035988400229762
    ],
    "lons": [
      25.032392156862745,
      25.032392156862745
    ],
    "true_lat": -4.8296,
    "true_lon": 16.8999,
    "wiki": "https://en.wikipedia.org/wiki/Special:Search?search=Kenge%2C+Congo (Kinshasa)&go=Go&ns0=1",
    "mean_dist": 1012,
    "mean_lat": -9.035,
    "mean_lon": 25.032,
    "mean_time": 4.2,
    "std_dist": 0,
    "std_time": 0,
    "city": "Kenge",
    "admin": "Kwango",
    "country": "Congo (Kinshasa)",
    "iso2": "CD",
    "regions": [
      "Minsk",
      "Minsk"
    ],
    "countries": [
      "Belarus",
      "Belarus"
    ],
    "dists": [
      1012.0286757751227,
      1012.0286757751227
    ],
    "times": [
      4.233333333333354,
      4.233333333333354
    ]
  },
  "Mweka, Kasa\u00ef, Congo (Kinshasa)": {
    "lats": [
      -6.045182863563278,
      -6.045182863563278
    ],
    "lons": [
      21.787441176470587,
      21.787441176470587
    ],
    "true_lat": -4.8396,
    "true_lon": 21.57,
    "wiki": "https://en.wikipedia.org/wiki/Special:Search?search=Mweka%2C+Congo (Kinshasa)&go=Go&ns0=1",
    "mean_dist": 136.1,
    "mean_lat": -6.045,
    "mean_lon": 21.787,
    "mean_time": 6.2,
    "std_dist": 0,
    "std_time": 0,
    "city": "Mweka",
    "admin": "Kasa\u00ef",
    "country": "Congo (Kinshasa)",
    "iso2": "CD",
    "regions": [
      "Minsk",
      "Minsk"
    ],
    "countries": [
      "Belarus",
      "Belarus"
    ],
    "dists": [
      136.1982902311693,
      136.1982902311693
    ],
    "times": [
      6.26666666666668,
      6.26666666666668
    ]
  },
  "Lusambo, Sankuru, Congo (Kinshasa)": {
    "lats": [
      -3.0070106290937435,
      -3.0070106290937435
    ],
    "lons": [
      22.21601960784314,
      22.21601960784314
    ],
    "true_lat": -4.9696,
    "true_lon": 23.43,
    "wiki": "https://en.wikipedia.org/wiki/Special:Search?search=Lusambo%2C+Congo (Kinshasa)&go=Go&ns0=1",
    "mean_dist": 256.4,
    "mean_lat": -3.007,
    "mean_lon": 22.216,
    "mean_time": 7.1,
    "std_dist": 0,
    "std_time": 0,
    "city": "Lusambo",
    "admin": "Sankuru",
    "country": "Congo (Kinshasa)",
    "iso2": "CD",
    "regions": [
      "Minsk",
      "Minsk"
    ],
    "countries": [
      "Belarus",
      "Belarus"
    ],
    "dists": [
      256.4298281177778,
      256.4298281177778
    ],
    "times": [
      7.1333333333333435,
      7.1333333333333435
    ]
  },
  "Lubumbashi, Haut-Katanga, Congo (Kinshasa)": {
    "lats": [
      -10.552916688380497,
      -10.552916688380497
    ],
    "lons": [
      26.25690196078431,
      26.25690196078431
    ],
    "true_lat": -11.68,
    "true_lon": 27.48,
    "wiki": "https://en.wikipedia.org/wiki/Special:Search?search=Lubumbashi%2C+Congo (Kinshasa)&go=Go&ns0=1",
    "mean_dist": 183,
    "mean_lat": -10.552,
    "mean_lon": 26.256,
    "mean_time": 6.1,
    "std_dist": 0,
    "std_time": 0,
    "city": "Lubumbashi",
    "admin": "Haut-Katanga",
    "country": "Congo (Kinshasa)",
    "iso2": "CD",
    "regions": [
      "Minsk",
      "Minsk"
    ],
    "countries": [
      "Belarus",
      "Belarus"
    ],
    "dists": [
      183.07094418878322,
      183.07094418878322
    ],
    "times": [
      6.16666666666668,
      6.16666666666668
    ]
  },
  "Ilebo, Kasa\u00ef, Congo (Kinshasa)": {
    "lats": [
      0.7941254771691943
    ],
    "lons": [
      19.96349555759804
    ],
    "true_lat": -4.3196,
    "true_lon": 20.61,
    "wiki": "https://en.wikipedia.org/wiki/Special:Search?search=Ilebo%2C+Congo (Kinshasa)&go=Go&ns0=1",
    "regions": [
      "Marion"
    ],
    "countries": [
      "United States"
    ],
    "dists": [
      573.1392832146697
    ],
    "times": [
      8.533333333333339
    ]
  },
  "Kasongo, Maniema, Congo (Kinshasa)": {
    "lats": [],
    "lons": [],
    "true_lat": -4.45,
    "true_lon": 26.66,
    "wiki": "https://en.wikipedia.org/wiki/Special:Search?search=Kasongo%2C+Congo (Kinshasa)&go=Go&ns0=1",
    "regions": [],
    "countries": [],
    "dists": [],
    "times": []
  },
  "Kabalo, Tanganyika, Congo (Kinshasa)": {
    "lats": [],
    "lons": [],
    "true_lat": -6.0496,
    "true_lon": 26.91,
    "wiki": "https://en.wikipedia.org/wiki/Special:Search?search=Kabalo%2C+Congo (Kinshasa)&go=Go&ns0=1",
    "regions": [],
    "countries": [],
    "dists": [],
    "times": []
  },
  "Kampene, Maniema, Congo (Kinshasa)": {
    "lats": [
      2.837138977393588,
      2.837138977393588
    ],
    "lons": [
      25.94618258802964,
      25.94618258802964
    ],
    "true_lat": -3.5995,
    "true_lon": 26.67,
    "wiki": "https://en.wikipedia.org/wiki/Special:Search?search=Kampene%2C+Congo (Kinshasa)&go=Go&ns0=1",
    "mean_dist": 720.2,
    "mean_lat": 2.837,
    "mean_lon": 25.946,
    "mean_time": 9.1,
    "std_dist": 0,
    "std_time": 0,
    "city": "Kampene",
    "admin": "Maniema",
    "country": "Congo (Kinshasa)",
    "iso2": "CD",
    "regions": [
      "Harpelunde",
      "Harpelunde"
    ],
    "countries": [
      "Denmark",
      "Denmark"
    ],
    "dists": [
      720.227819927767,
      720.227819927767
    ],
    "times": [
      9.133333333333336,
      9.133333333333336
    ]
  },
  "Basoko, Tshopo, Congo (Kinshasa)": {
    "lats": [
      -6.066423027470042
    ],
    "lons": [
      18.420613204656863
    ],
    "true_lat": 1.2404,
    "true_lon": 23.59,
    "wiki": "https://en.wikipedia.org/wiki/Special:Search?search=Basoko%2C+Congo (Kinshasa)&go=Go&ns0=1",
    "mean_dist": 994.7,
    "mean_lat": -6.066,
    "mean_lon": 18.42,
    "mean_time": 0.2,
    "std_dist": 0,
    "std_time": 2.5,
    "city": "Basoko",
    "admin": "Tshopo",
    "country": "Congo (Kinshasa)",
    "iso2": "CD",
    "regions": [
      "Marion"
    ],
    "countries": [
      "United States"
    ],
    "dists": [
      994.7345582120613
    ],
    "times": [
      0.2000000000000255
    ]
  },
  "Bandundu, Kwilu, Congo (Kinshasa)": {
    "lats": [
      -5.012267850321034
    ],
    "lons": [
      21.38392693014706
    ],
    "true_lat": -3.31,
    "true_lon": 17.38,
    "wiki": "https://en.wikipedia.org/wiki/Special:Search?search=Bandundu%2C+Congo (Kinshasa)&go=Go&ns0=1",
    "mean_dist": 482.6,
    "mean_lat": -5.012,
    "mean_lon": 21.383,
    "mean_time": 7,
    "std_dist": 0,
    "std_time": 1,
    "city": "Bandundu",
    "admin": "Kwilu",
    "country": "Congo (Kinshasa)",
    "iso2": "CD",
    "regions": [
      "Marion"
    ],
    "countries": [
      "United States"
    ],
    "dists": [
      482.68732915790184
    ],
    "times": [
      7.000000000000011
    ]
  },
  "Bolobo, Mai-Ndombe, Congo (Kinshasa)": {
    "lats": [
      -2.3332914127184856
    ],
    "lons": [
      26.502377910539217
    ],
    "true_lat": -2.1595,
    "true_lon": 16.24,
    "wiki": "https://en.wikipedia.org/wiki/Special:Search?search=Bolobo%2C+Congo (Kinshasa)&go=Go&ns0=1",
    "mean_dist": 1140.4,
    "mean_lat": -2.333,
    "mean_lon": 26.502,
    "mean_time": 9.7,
    "std_dist": 0,
    "std_time": 0,
    "city": "Bolobo",
    "admin": "Mai-Ndombe",
    "country": "Congo (Kinshasa)",
    "iso2": "CD",
    "regions": [
      "Marion"
    ],
    "countries": [
      "United States"
    ],
    "dists": [
      1140.408365502609
    ],
    "times": [
      9.733333333333334
    ]
  },
  "Bondo, Bas-U\u00e9l\u00e9, Congo (Kinshasa)": {
    "lats": [
      -10.743353531754668
    ],
    "lons": [
      22.877828890931372
    ],
    "true_lat": 3.81,
    "true_lon": 23.67,
    "wiki": "https://en.wikipedia.org/wiki/Special:Search?search=Bondo%2C+Congo (Kinshasa)&go=Go&ns0=1",
    "mean_dist": 1620.6,
    "mean_lat": -10.743,
    "mean_lon": 22.877,
    "mean_time": 9.9,
    "std_dist": 0,
    "std_time": 0,
    "city": "Bondo",
    "admin": "Bas-U\u00e9l\u00e9",
    "country": "Congo (Kinshasa)",
    "iso2": "CD",
    "regions": [
      "Marion"
    ],
    "countries": [
      "United States"
    ],
    "dists": [
      1620.6329148249163
    ],
    "times": [
      9.966666666666667
    ]
  },
  "Mwene-Ditu, Lomami, Congo (Kinshasa)": {
    "lats": [],
    "lons": [],
    "true_lat": -7,
    "true_lon": 23.44,
    "wiki": "https://en.wikipedia.org/wiki/Special:Search?search=Mwene-Ditu%2C+Congo (Kinshasa)&go=Go&ns0=1",
    "regions": [],
    "countries": [],
    "dists": [],
    "times": []
  },
  "Kongolo, Tanganyika, Congo (Kinshasa)": {
    "lats": [],
    "lons": [],
    "true_lat": -5.3795,
    "true_lon": 26.98,
    "wiki": "https://en.wikipedia.org/wiki/Special:Search?search=Kongolo%2C+Congo (Kinshasa)&go=Go&ns0=1",
    "regions": [],
    "countries": [],
    "dists": [],
    "times": []
  },
  "Boma, Kongo Central, Congo (Kinshasa)": {
    "lats": [],
    "lons": [],
    "true_lat": -5.83,
    "true_lon": 13.05,
    "wiki": "https://en.wikipedia.org/wiki/Special:Search?search=Boma%2C+Congo (Kinshasa)&go=Go&ns0=1",
    "regions": [],
    "countries": [],
    "dists": [],
    "times": []
  },
  "Beni, Nord-Kivu, Congo (Kinshasa)": {
    "lats": [],
    "lons": [],
    "true_lat": 0.4904,
    "true_lon": 29.45,
    "wiki": "https://en.wikipedia.org/wiki/Special:Search?search=Beni%2C+Congo (Kinshasa)&go=Go&ns0=1",
    "regions": [],
    "countries": [],
    "dists": [],
    "times": []
  }
}