{
  "Lengir, Ongt\u00fcstik Qazaqstan, Kazakhstan": {
    "lats": [
      45.760681098075395,
      45.760681098075395
    ],
    "lons": [
      64.85751633986928,
      64.85751633986928
    ],
    "true_lat": 42.1899,
    "true_lon": 69.8799,
    "wiki": "https://en.wikipedia.org/wiki/Special:Search?search=Lengir%2C+Kazakhstan&go=Go&ns0=1",
    "mean_dist": 564.7,
    "mean_lat": 45.76,
    "mean_lon": 64.857,
    "mean_time": 5.5,
    "std_dist": 0,
    "std_time": 0,
    "city": "Lengir",
    "admin": "Ongt\u00fcstik Qazaqstan",
    "country": "Kazakhstan",
    "iso2": "KZ",
    "regions": [
      "New South Wales",
      "New South Wales"
    ],
    "countries": [
      "Australia",
      "Australia"
    ],
    "dists": [
      564.7301490419575,
      564.7301490419575
    ],
    "times": [
      5.533333333333349,
      5.533333333333349
    ]
  },
  "Manghyshlaq, Mangghysta\u016b, Kazakhstan": {
    "lats": [
      51.307899362856354,
      51.307899362856354,
      48.948667203277154,
      48.37034429221191,
      49.33343712819569,
      49.76856824851645
    ],
    "lons": [
      71.15084967320261,
      71.15084967320261,
      81.31067537145677,
      78.72719055774165,
      74.46204792047638,
      75.32583877014957
    ],
    "true_lat": 43.6905,
    "true_lon": 51.1417,
    "wiki": "https://en.wikipedia.org/wiki/Special:Search?search=Manghyshlaq%2C+Kazakhstan&go=Go&ns0=1",
    "mean_dist": 1717.3,
    "mean_lat": 51.307,
    "mean_lon": 71.15,
    "mean_time": 7.2,
    "std_dist": 0,
    "std_time": 9.7,
    "city": "Manghyshlaq",
    "admin": "Mangghysta\u016b",
    "country": "Kazakhstan",
    "iso2": "KZ",
    "regions": [
      "New South Wales",
      "New South Wales",
      "England",
      "England",
      "England",
      "England"
    ],
    "countries": [
      "Australia",
      "Australia",
      "United Kingdom",
      "United Kingdom",
      "United Kingdom",
      "United Kingdom"
    ],
    "dists": [
      1717.3163454442445,
      1717.3163454442445,
      2372.3477898481415,
      2179.3707449635504,
      1882.5643805693182,
      1952.832078762614
    ],
    "times": [
      7.20000000000001,
      7.20000000000001,
      5.866666666666681,
      5.400000000000016,
      0.5333333333333588,
      6.733333333333345
    ]
  },
  "Qazaly, Qyzylorda, Kazakhstan": {
    "lats": [
      49.59498091835436,
      52.052592581762,
      45.41587851436182
    ],
    "lons": [
      84.45734203812344,
      64.93738663617302,
      73.96845314923455
    ],
    "true_lat": 45.7628,
    "true_lon": 62.1075,
    "wiki": "https://en.wikipedia.org/wiki/Special:Search?search=Qazaly%2C+Kazakhstan&go=Go&ns0=1",
    "mean_dist": 1123.8,
    "mean_lat": 49.021,
    "mean_lon": 74.454,
    "mean_time": 4.3,
    "std_dist": 428.5,
    "std_time": 2.5,
    "city": "Qazaly",
    "admin": "Qyzylorda",
    "country": "Kazakhstan",
    "iso2": "KZ",
    "regions": [
      "England",
      "England",
      "England"
    ],
    "countries": [
      "United Kingdom",
      "United Kingdom",
      "United Kingdom"
    ],
    "dists": [
      1719.5966975326755,
      729.1839080130165,
      922.9040200840634
    ],
    "times": [
      0.7000000000000254,
      5.900000000000015,
      6.466666666666679
    ]
  },
  "Mak\u012bnsk, Aqmola, Kazakhstan": {
    "lats": [
      50.901343688974514,
      48.841127604819164,
      48.08750508942596,
      47.33070296472445
    ],
    "lons": [
      69.46440086165285,
      77.06130820480047,
      59.25315903158749,
      60.39459694008421
    ],
    "true_lat": 52.6404,
    "true_lon": 70.41,
    "wiki": "https://en.wikipedia.org/wiki/Special:Search?search=Mak\u012bnsk%2C+Kazakhstan&go=Go&ns0=1",
    "mean_dist": 674.6,
    "mean_lat": 48.79,
    "mean_lon": 66.543,
    "mean_time": 4.5,
    "std_dist": 298.4,
    "std_time": 1.8,
    "city": "Mak\u012bnsk",
    "admin": "Aqmola",
    "country": "Kazakhstan",
    "iso2": "KZ",
    "regions": [
      "England",
      "England",
      "England",
      "England"
    ],
    "countries": [
      "United Kingdom",
      "United Kingdom",
      "United Kingdom",
      "United Kingdom"
    ],
    "dists": [
      204.02230952358255,
      630.0330583520733,
      937.888479968591,
      926.6266342426552
    ],
    "times": [
      5.933333333333348,
      3.033333333333358,
      6.766666666666678,
      2.3000000000000274
    ]
  },
  "Oral, Batys Qazaqstan, Kazakhstan": {
    "lats": [
      50.70013998421497,
      48.90799125047963,
      52.80663096358777
    ],
    "lons": [
      70.58287683225146,
      66.7804792930254,
      66.19433550217572
    ],
    "true_lat": 51.2711,
    "true_lon": 51.335,
    "wiki": "https://en.wikipedia.org/wiki/Special:Search?search=Oral%2C+Kazakhstan&go=Go&ns0=1",
    "mean_dist": 1168,
    "mean_lat": 50.804,
    "mean_lon": 67.852,
    "mean_time": 5.7,
    "std_dist": 131.8,
    "std_time": 2.3,
    "city": "Oral",
    "admin": "Batys Qazaqstan",
    "country": "Kazakhstan",
    "iso2": "KZ",
    "regions": [
      "England",
      "England",
      "England"
    ],
    "countries": [
      "United Kingdom",
      "United Kingdom",
      "United Kingdom"
    ],
    "dists": [
      1344.9601468465892,
      1130.4847921788628,
      1028.6780811560618
    ],
    "times": [
      4.233333333333354,
      8.96666666666667,
      3.9000000000000217
    ]
  },
  "Kishkenek\u00f6l, Solt\u00fcstik Qazaqstan, Kazakhstan": {
    "lats": [
      49.19202731772865,
      48.989310004513605,
      42.85414094364191
    ],
    "lons": [
      58.35851850871167,
      69.40270151524761,
      68.23041393354828
    ],
    "true_lat": 53.6368,
    "true_lon": 72.3414,
    "wiki": "https://en.wikipedia.org/wiki/Special:Search?search=Kishkenek\u00f6l%2C+Kazakhstan&go=Go&ns0=1",
    "mean_dist": 959.2,
    "mean_lat": 47.011,
    "mean_lon": 65.33,
    "mean_time": 5.3,
    "std_dist": 292,
    "std_time": 1.5,
    "city": "Kishkenek\u00f6l",
    "admin": "Solt\u00fcstik Qazaqstan",
    "country": "Kazakhstan",
    "iso2": "KZ",
    "regions": [
      "England",
      "England",
      "England"
    ],
    "countries": [
      "United Kingdom",
      "United Kingdom",
      "United Kingdom"
    ],
    "dists": [
      1085.8528798369364,
      555.5554975663101,
      1236.4813395078957
    ],
    "times": [
      6.700000000000012,
      3.200000000000024,
      6.033333333333347
    ]
  },
  "Sarqan, Almaty, Kazakhstan": {
    "lats": [
      44.29679780341884,
      51.090635807539364,
      53.40748100485872,
      50.22624087751088
    ],
    "lons": [
      77.17681916230644,
      71.29241931591159,
      57.74152504465938,
      70.32819171132604
    ],
    "true_lat": 45.4203,
    "true_lon": 79.9149,
    "wiki": "https://en.wikipedia.org/wiki/Special:Search?search=Sarqan%2C+Kazakhstan&go=Go&ns0=1",
    "mean_dist": 965,
    "mean_lat": 49.755,
    "mean_lon": 69.134,
    "mean_time": 4.6,
    "std_dist": 560.7,
    "std_time": 1.4,
    "city": "Sarqan",
    "admin": "Almaty",
    "country": "Kazakhstan",
    "iso2": "KZ",
    "regions": [
      "England",
      "England",
      "England",
      "England"
    ],
    "countries": [
      "United Kingdom",
      "United Kingdom",
      "United Kingdom",
      "United Kingdom"
    ],
    "dists": [
      249.34636525614525,
      896.1244819121989,
      1822.6574960561175,
      892.0718380572144
    ],
    "times": [
      6.700000000000012,
      2.8000000000000256,
      3.8666666666666885,
      5.33333333333335
    ]
  },
  "T\u00fcrkistan, Ongt\u00fcstik Qazaqstan, Kazakhstan": {
    "lats": [
      43.67315412567468,
      45.082785735136255,
      49.19202730808207
    ],
    "lons": [
      68.16871458714304,
      60.556733041401785,
      68.87825707080317
    ],
    "true_lat": 43.3016,
    "true_lon": 68.2549,
    "wiki": "https://en.wikipedia.org/wiki/Special:Search?search=T\u00fcrkistan%2C+Kazakhstan&go=Go&ns0=1",
    "mean_dist": 447.7,
    "mean_lat": 45.982,
    "mean_lon": 65.867,
    "mean_time": 4.8,
    "std_dist": 287,
    "std_time": 2.5,
    "city": "T\u00fcrkistan",
    "admin": "Ongt\u00fcstik Qazaqstan",
    "country": "Kazakhstan",
    "iso2": "KZ",
    "regions": [
      "England",
      "England",
      "England"
    ],
    "countries": [
      "United Kingdom",
      "United Kingdom",
      "United Kingdom"
    ],
    "dists": [
      41.89590929830504,
      644.6163749806344,
      656.730707248729
    ],
    "times": [
      2.3000000000000274,
      3.800000000000022,
      8.33333333333334
    ]
  },
  "Tobyl, Qostanay, Kazakhstan": {
    "lats": [
      51.77158415601331,
      45.71313227997895,
      44.58411902526334,
      49.3872009655682
    ],
    "lons": [
      69.98884530609729,
      72.1870598387874,
      66.62623092701233,
      77.57786491394043
    ],
    "true_lat": 52.698,
    "true_lon": 62.5749,
    "wiki": "https://en.wikipedia.org/wiki/Special:Search?search=Tobyl%2C+Kazakhstan&go=Go&ns0=1",
    "mean_dist": 904.1,
    "mean_lat": 47.864,
    "mean_lon": 71.595,
    "mean_time": 4.7,
    "std_dist": 231.6,
    "std_time": 1.9,
    "city": "Tobyl",
    "admin": "Qostanay",
    "country": "Kazakhstan",
    "iso2": "KZ",
    "regions": [
      "England",
      "England",
      "England",
      "England"
    ],
    "countries": [
      "United Kingdom",
      "United Kingdom",
      "United Kingdom",
      "United Kingdom"
    ],
    "dists": [
      515.0344807924035,
      1042.679759051164,
      949.6683177213314,
      1109.1483004157951
    ],
    "times": [
      3.933333333333355,
      4.666666666666686,
      7.866666666666674,
      2.566666666666693
    ]
  },
  "Emba, Aqt\u00f6be, Kazakhstan": {
    "lats": [
      48.74495603715004,
      50.04864919640366,
      46.95874261016183,
      50.659943921078806
    ],
    "lons": [
      81.31067537145677,
      63.58000101525799,
      70.91433550217573,
      69.09420478322147
    ],
    "true_lat": 48.8268,
    "true_lon": 58.1442,
    "wiki": "https://en.wikipedia.org/wiki/Special:Search?search=Emba%2C+Kazakhstan&go=Go&ns0=1",
    "mean_dist": 972.9,
    "mean_lat": 49.103,
    "mean_lon": 71.224,
    "mean_time": 5.9,
    "std_dist": 461.3,
    "std_time": 1.6,
    "city": "Emba",
    "admin": "Aqt\u00f6be",
    "country": "Kazakhstan",
    "iso2": "KZ",
    "regions": [
      "England",
      "England",
      "England",
      "England"
    ],
    "countries": [
      "United Kingdom",
      "United Kingdom",
      "United Kingdom",
      "United Kingdom"
    ],
    "dists": [
      1690.7005562125441,
      415.7505042647292,
      973.2620644315692,
      811.9485348483064
    ],
    "times": [
      7.400000000000009,
      6.000000000000014,
      3.1333333333333577,
      7.066666666666677
    ]
  },
  "Makhambet, Atyra\u016b, Kazakhstan": {
    "lats": [
      45.6760308709035,
      50.187592129161196,
      45.63275574275499,
      48.12195728442711
    ],
    "lons": [
      79.42884530609729,
      76.01241931591159,
      69.77289759367899,
      63.54126360675089
    ],
    "true_lat": 47.6714,
    "true_lon": 51.5798,
    "wiki": "https://en.wikipedia.org/wiki/Special:Search?search=Makhambet%2C+Kazakhstan&go=Go&ns0=1",
    "mean_dist": 1554.7,
    "mean_lat": 47.404,
    "mean_lon": 72.188,
    "mean_time": 6.1,
    "std_dist": 459.8,
    "std_time": 0.5,
    "city": "Makhambet",
    "admin": "Atyra\u016b",
    "country": "Kazakhstan",
    "iso2": "KZ",
    "regions": [
      "England",
      "England",
      "England",
      "England"
    ],
    "countries": [
      "United Kingdom",
      "United Kingdom",
      "United Kingdom",
      "United Kingdom"
    ],
    "dists": [
      2124.75927116104,
      1798.3420997308012,
      1403.635876614665,
      892.2648217745349
    ],
    "times": [
      5.23333333333335,
      6.433333333333346,
      6.36666666666668,
      6.6666666666666785
    ]
  },
  "Atas\u016b, Qaraghandy, Kazakhstan": {
    "lats": [
      45.5894471939974,
      48.5960490822434,
      46.51321373610481,
      49.62841122223678
    ],
    "lons": [
      64.651851842045,
      53.646406244016156,
      62.49237471786199,
      73.8450544564241
    ],
    "true_lat": 48.6903,
    "true_lon": 71.6499,
    "wiki": "https://en.wikipedia.org/wiki/Special:Search?search=Atas\u016b%2C+Kazakhstan&go=Go&ns0=1",
    "mean_dist": 717.2,
    "mean_lat": 47.581,
    "mean_lon": 63.658,
    "mean_time": 6.2,
    "std_dist": 402.4,
    "std_time": 0.6,
    "city": "Atas\u016b",
    "admin": "Qaraghandy",
    "country": "Kazakhstan",
    "iso2": "KZ",
    "regions": [
      "England",
      "England",
      "England",
      "England"
    ],
    "countries": [
      "United Kingdom",
      "United Kingdom",
      "United Kingdom",
      "United Kingdom"
    ],
    "dists": [
      631.3126899371018,
      1319.7102963318116,
      727.4703149124501,
      190.67403243957853
    ],
    "times": [
      6.833333333333345,
      6.766666666666678,
      5.33333333333335,
      6.033333333333347
    ]
  },
  "Qulsary, Atyra\u016b, Kazakhstan": {
    "lats": [
      48.69058335230029
    ],
    "lons": [
      60.876954194679186
    ],
    "true_lat": 46.9833,
    "true_lon": 54.0165,
    "wiki": "https://en.wikipedia.org/wiki/Special:Search?search=Qulsary%2C+Kazakhstan&go=Go&ns0=1",
    "mean_dist": 545.8,
    "mean_lat": 48.69,
    "mean_lon": 60.876,
    "mean_time": 7.7,
    "std_dist": 0,
    "std_time": 0,
    "city": "Qulsary",
    "admin": "Atyra\u016b",
    "country": "Kazakhstan",
    "iso2": "KZ",
    "regions": [
      "Madrid"
    ],
    "countries": [
      "Spain"
    ],
    "dists": [
      545.8741045553584
    ],
    "times": [
      7.766666666666675
    ]
  },
  "Oktyabr\u2019sk, Aqt\u00f6be, Kazakhstan": {
    "lats": [
      47.97342654120303
    ],
    "lons": [
      52.463406957602544
    ],
    "true_lat": 49.4731,
    "true_lon": 57.4449,
    "wiki": "https://en.wikipedia.org/wiki/Special:Search?search=Oktyabr\u2019sk%2C+Kazakhstan&go=Go&ns0=1",
    "mean_dist": 401.5,
    "mean_lat": 47.973,
    "mean_lon": 52.463,
    "mean_time": 8.2,
    "std_dist": 0,
    "std_time": 0,
    "city": "Oktyabr\u2019sk",
    "admin": "Aqt\u00f6be",
    "country": "Kazakhstan",
    "iso2": "KZ",
    "regions": [
      "Madrid"
    ],
    "countries": [
      "Spain"
    ],
    "dists": [
      401.56238571684975
    ],
    "times": [
      8.23333333333334
    ]
  },
  "Zaysan, Shyghys Qazaqstan, Kazakhstan": {
    "lats": [
      51.808223165935416
    ],
    "lons": [
      69.99163036817889
    ],
    "true_lat": 47.4752,
    "true_lon": 84.8598,
    "wiki": "https://en.wikipedia.org/wiki/Special:Search?search=Zaysan%2C+Kazakhstan&go=Go&ns0=1",
    "mean_dist": 1171.2,
    "mean_lat": 51.808,
    "mean_lon": 69.991,
    "mean_time": 7.1,
    "std_dist": 0,
    "std_time": 0,
    "city": "Zaysan",
    "admin": "Shyghys Qazaqstan",
    "country": "Kazakhstan",
    "iso2": "KZ",
    "regions": [
      "Madrid"
    ],
    "countries": [
      "Spain"
    ],
    "dists": [
      1171.224051480655
    ],
    "times": [
      7.1333333333333435
    ]
  },
  "Qaraghandy, Qaraghandy, Kazakhstan": {
    "lats": [
      47.0228218940685
    ],
    "lons": [
      80.41508055633497
    ],
    "true_lat": 49.885,
    "true_lon": 73.115,
    "wiki": "https://en.wikipedia.org/wiki/Special:Search?search=Qaraghandy%2C+Kazakhstan&go=Go&ns0=1",
    "mean_dist": 624.9,
    "mean_lat": 47.022,
    "mean_lon": 80.415,
    "mean_time": 8.6,
    "std_dist": 0,
    "std_time": 0,
    "city": "Qaraghandy",
    "admin": "Qaraghandy",
    "country": "Kazakhstan",
    "iso2": "KZ",
    "regions": [
      "Madrid"
    ],
    "countries": [
      "Spain"
    ],
    "dists": [
      624.9872972529746
    ],
    "times": [
      8.666666666666671
    ]
  },
  "Shymkent, , Kazakhstan": {
    "lats": [
      41.96449626625182
    ],
    "lons": [
      69.69559910154503
    ],
    "true_lat": 42.32,
    "true_lon": 69.595,
    "wiki": "https://en.wikipedia.org/wiki/Special:Search?search=Shymkent%2C+Kazakhstan&go=Go&ns0=1",
    "mean_dist": 40.3,
    "mean_lat": 41.964,
    "mean_lon": 69.695,
    "mean_time": 7.6,
    "std_dist": 0,
    "std_time": 0,
    "city": "Shymkent",
    "admin": "",
    "country": "Kazakhstan",
    "iso2": "KZ",
    "regions": [
      "Madrid"
    ],
    "countries": [
      "Spain"
    ],
    "dists": [
      40.39099060106783
    ],
    "times": [
      7.633333333333342
    ]
  },
  "Oytal, Zhambyl, Kazakhstan": {
    "lats": [
      50.044544850494944
    ],
    "lons": [
      52.43224614702279
    ],
    "true_lat": 42.9153,
    "true_lon": 73.2549,
    "wiki": "https://en.wikipedia.org/wiki/Special:Search?search=Oytal%2C+Kazakhstan&go=Go&ns0=1",
    "mean_dist": 1772.4,
    "mean_lat": 50.044,
    "mean_lon": 52.432,
    "mean_time": 7.3,
    "std_dist": 0,
    "std_time": 0,
    "city": "Oytal",
    "admin": "Zhambyl",
    "country": "Kazakhstan",
    "iso2": "KZ",
    "regions": [
      "Madrid"
    ],
    "countries": [
      "Spain"
    ],
    "dists": [
      1772.440462704405
    ],
    "times": [
      7.366666666666676
    ]
  },
  "Aral, Qyzylorda, Kazakhstan": {
    "lats": [
      52.24112158825636
    ],
    "lons": [
      73.7465672407341
    ],
    "true_lat": 46.8,
    "true_lon": 61.6666,
    "wiki": "https://en.wikipedia.org/wiki/Special:Search?search=Aral%2C+Kazakhstan&go=Go&ns0=1",
    "mean_dist": 1059.1,
    "mean_lat": 52.241,
    "mean_lon": 73.746,
    "mean_time": 8.6,
    "std_dist": 0,
    "std_time": 0,
    "city": "Aral",
    "admin": "Qyzylorda",
    "country": "Kazakhstan",
    "iso2": "KZ",
    "regions": [
      "Madrid"
    ],
    "countries": [
      "Spain"
    ],
    "dists": [
      1059.183686084426
    ],
    "times": [
      8.633333333333338
    ]
  },
  "Zharkent, Almaty, Kazakhstan": {
    "lats": [
      49.214181212751285
    ],
    "lons": [
      67.10921330926253
    ],
    "true_lat": 44.1616,
    "true_lon": 79.9801,
    "wiki": "https://en.wikipedia.org/wiki/Special:Search?search=Zharkent%2C+Kazakhstan&go=Go&ns0=1",
    "mean_dist": 1128.9,
    "mean_lat": 49.214,
    "mean_lon": 67.109,
    "mean_time": 8.4,
    "std_dist": 0,
    "std_time": 0,
    "city": "Zharkent",
    "admin": "Almaty",
    "country": "Kazakhstan",
    "iso2": "KZ",
    "regions": [
      "Madrid"
    ],
    "countries": [
      "Spain"
    ],
    "dists": [
      1128.9775324137104
    ],
    "times": [
      8.433333333333339
    ]
  },
  "Chapaev, Batys Qazaqstan, Kazakhstan": {
    "lats": [
      56.65372979356495
    ],
    "lons": [
      69.22817981059633
    ],
    "true_lat": 50.1915,
    "true_lon": 51.1449,
    "wiki": "https://en.wikipedia.org/wiki/Special:Search?search=Chapaev%2C+Kazakhstan&go=Go&ns0=1",
    "mean_dist": 1390.9,
    "mean_lat": 56.653,
    "mean_lon": 69.228,
    "mean_time": 9.1,
    "std_dist": 0,
    "std_time": 3.5,
    "city": "Chapaev",
    "admin": "Batys Qazaqstan",
    "country": "Kazakhstan",
    "iso2": "KZ",
    "regions": [
      "Madrid"
    ],
    "countries": [
      "Spain"
    ],
    "dists": [
      1390.9023115711038
    ],
    "times": [
      9.100000000000003
    ]
  },
  "Taiynsha, Solt\u00fcstik Qazaqstan, Kazakhstan": {
    "lats": [
      44.93723019835051
    ],
    "lons": [
      77.61056481064276
    ],
    "true_lat": 53.8481,
    "true_lon": 69.7638,
    "wiki": "https://en.wikipedia.org/wiki/Special:Search?search=Taiynsha%2C+Kazakhstan&go=Go&ns0=1",
    "mean_dist": 1140.4,
    "mean_lat": 44.937,
    "mean_lon": 77.61,
    "mean_time": 7.4,
    "std_dist": 0,
    "std_time": 8.8,
    "city": "Taiynsha",
    "admin": "Solt\u00fcstik Qazaqstan",
    "country": "Kazakhstan",
    "iso2": "KZ",
    "regions": [
      "Madrid"
    ],
    "countries": [
      "Spain"
    ],
    "dists": [
      1140.474119882671
    ],
    "times": [
      7.400000000000009
    ]
  },
  "Aqs\u016b, Aqmola, Kazakhstan": {
    "lats": [
      51.7211402230417
    ],
    "lons": [
      76.34853272508126
    ],
    "true_lat": 52.4502,
    "true_lon": 71.9597,
    "wiki": "https://en.wikipedia.org/wiki/Special:Search?search=Aqs\u016b%2C+Kazakhstan&go=Go&ns0=1",
    "mean_dist": 310.5,
    "mean_lat": 51.721,
    "mean_lon": 76.348,
    "mean_time": 6.1,
    "std_dist": 0,
    "std_time": 1.4,
    "city": "Aqs\u016b",
    "admin": "Aqmola",
    "country": "Kazakhstan",
    "iso2": "KZ",
    "regions": [
      "Madrid"
    ],
    "countries": [
      "Spain"
    ],
    "dists": [
      310.586175146161
    ],
    "times": [
      6.100000000000014
    ]
  }
}